{
"type": "FeatureCollection",
"name": "towns",
"crs": { "type": "name", "properties": { "name": "urn:ogc:def:crs:OGC:1.3:CRS84" } },
"features": [
{ "type": "Feature", "properties": { "DD_LAT": -16.05, "DD_LONG": 28.83333, "SORT_NAME": "CHIRUNDU", "FULL_NAME": "Chirundu", "FULL_NAME_": "Chirundu", "ZIADMN3_": 2, "ZIADMN3_ID": 1, "ADMIN2": "MASHONALAND WEST", "ADMIN3": "HURUNGWE", "FEWSID2": "ZI2MASHONALAND WEST", "FEWSID3": "ZI3HURUNGWE" }, "geometry": { "type": "Point", "coordinates": [ 28.880661228158733, -16.047202167347972 ] } },
{ "type": "Feature", "properties": { "DD_LAT": -16.66667, "DD_LONG": 29.76667, "SORT_NAME": "MWAMI", "FULL_NAME": "Mwami", "FULL_NAME_": "Mwami", "ZIADMN3_": 2, "ZIADMN3_ID": 1, "ADMIN2": "MASHONALAND WEST", "ADMIN3": "HURUNGWE", "FEWSID2": "ZI2MASHONALAND WEST", "FEWSID3": "ZI3HURUNGWE" }, "geometry": { "type": "Point", "coordinates": [ 29.76667, -16.66667 ] } },
{ "type": "Feature", "properties": { "DD_LAT": -16.9, "DD_LONG": 30.15, "SORT_NAME": "MHANGURA", "FULL_NAME": "Mhangura", "FULL_NAME_": "Mhangura", "ZIADMN3_": 6, "ZIADMN3_ID": 5, "ADMIN2": "MASHONALAND WEST", "ADMIN3": "MAKONDE", "FEWSID2": "ZI2MASHONALAND WEST", "FEWSID3": "ZI3MAKONDE" }, "geometry": { "type": "Point", "coordinates": [ 30.15, -16.9 ] } },
{ "type": "Feature", "properties": { "DD_LAT": -16.3, "DD_LONG": 29.25, "SORT_NAME": "MAKUTI", "FULL_NAME": "Makuti", "FULL_NAME_": "Makuti", "ZIADMN3_": 2, "ZIADMN3_ID": 1, "ADMIN2": "MASHONALAND WEST", "ADMIN3": "HURUNGWE", "FEWSID2": "ZI2MASHONALAND WEST", "FEWSID3": "ZI3HURUNGWE" }, "geometry": { "type": "Point", "coordinates": [ 29.25, -16.3 ] } },
{ "type": "Feature", "properties": { "DD_LAT": -16.85, "DD_LONG": 29.41667, "SORT_NAME": "MAGUNGE", "FULL_NAME": "Magunge", "FULL_NAME_": "Magunge", "ZIADMN3_": 2, "ZIADMN3_ID": 1, "ADMIN2": "MASHONALAND WEST", "ADMIN3": "HURUNGWE", "FEWSID2": "ZI2MASHONALAND WEST", "FEWSID3": "ZI3HURUNGWE" }, "geometry": { "type": "Point", "coordinates": [ 29.41667, -16.85 ] } },
{ "type": "Feature", "properties": { "DD_LAT": -17.26667, "DD_LONG": 30.03333, "SORT_NAME": "LIONSDEN", "FULL_NAME": "Lions Den", "FULL_NAME_": "Lions Den", "ZIADMN3_": 6, "ZIADMN3_ID": 5, "ADMIN2": "MASHONALAND WEST", "ADMIN3": "MAKONDE", "FEWSID2": "ZI2MASHONALAND WEST", "FEWSID3": "ZI3MAKONDE" }, "geometry": { "type": "Point", "coordinates": [ 30.03333, -17.26667 ] } },
{ "type": "Feature", "properties": { "DD_LAT": -16.81667, "DD_LONG": 29.68333, "SORT_NAME": "KAROI", "FULL_NAME": "Karoi", "FULL_NAME_": "Karoi", "ZIADMN3_": 2, "ZIADMN3_ID": 1, "ADMIN2": "MASHONALAND WEST", "ADMIN3": "HURUNGWE", "FEWSID2": "ZI2MASHONALAND WEST", "FEWSID3": "ZI3HURUNGWE" }, "geometry": { "type": "Point", "coordinates": [ 29.68333, -16.81667 ] } },
{ "type": "Feature", "properties": { "DD_LAT": -17.36667, "DD_LONG": 30.2, "SORT_NAME": "CHINHOYI", "FULL_NAME": "Chinhoyi", "FULL_NAME_": "Chinhoyi", "ZIADMN3_": 19, "ZIADMN3_ID": 18, "ADMIN2": "MASHONALAND WEST", "ADMIN3": "CHINHOYI", "FEWSID2": "ZI2MASHONALAND WEST", "FEWSID3": "ZI3CHINHOYI" }, "geometry": { "type": "Point", "coordinates": [ 30.2, -17.36667 ] } },
{ "type": "Feature", "properties": { "DD_LAT": -16.74, "DD_LONG": 28.93, "SORT_NAME": null, "FULL_NAME": null, "FULL_NAME_": "Gache Gache Lodge", "ZIADMN3_": 7, "ZIADMN3_ID": 6, "ADMIN2": "MASHONALAND WEST", "ADMIN3": "KARIBA", "FEWSID2": "ZI2MASHONALAND WEST", "FEWSID3": "ZI3KARIBA" }, "geometry": { "type": "Point", "coordinates": [ 28.929921127226088, -16.736495697477043 ] } },
{ "type": "Feature", "properties": { "DD_LAT": -16.51667, "DD_LONG": 28.8, "SORT_NAME": "KARIBA", "FULL_NAME": "Kariba", "FULL_NAME_": "Kariba", "ZIADMN3_": 7, "ZIADMN3_ID": 6, "ADMIN2": "MASHONALAND WEST", "ADMIN3": "KARIBA", "FEWSID2": "ZI2MASHONALAND WEST", "FEWSID3": "ZI3KARIBA" }, "geometry": { "type": "Point", "coordinates": [ 28.8, -16.51667 ] } },
{ "type": "Feature", "properties": { "DD_LAT": -16.75, "DD_LONG": 28.54, "SORT_NAME": null, "FULL_NAME": null, "FULL_NAME_": "King's Camp", "ZIADMN3_": 7, "ZIADMN3_ID": 6, "ADMIN2": "MASHONALAND WEST", "ADMIN3": "KARIBA", "FEWSID2": "ZI2MASHONALAND WEST", "FEWSID3": "ZI3KARIBA" }, "geometry": { "type": "Point", "coordinates": [ 28.54417985872692, -16.749881187308098 ] } },
{ "type": "Feature", "properties": { "DD_LAT": -16.8, "DD_LONG": 28.44, "SORT_NAME": null, "FULL_NAME": null, "FULL_NAME_": "Tashinga", "ZIADMN3_": 7, "ZIADMN3_ID": 6, "ADMIN2": "MASHONALAND WEST", "ADMIN3": "KARIBA", "FEWSID2": "ZI2MASHONALAND WEST", "FEWSID3": "ZI3KARIBA" }, "geometry": { "type": "Point", "coordinates": [ 28.442400755649686, -16.807392608561912 ] } },
{ "type": "Feature", "properties": { "DD_LAT": -16.83, "DD_LONG": 28.28, "SORT_NAME": null, "FULL_NAME": null, "FULL_NAME_": "Chalala", "ZIADMN3_": 7, "ZIADMN3_ID": 6, "ADMIN2": "MASHONALAND WEST", "ADMIN3": "KARIBA", "FEWSID2": "ZI2MASHONALAND WEST", "FEWSID3": "ZI3KARIBA" }, "geometry": { "type": "Point", "coordinates": [ 28.282510783777251, -16.831992036076624 ] } },
{ "type": "Feature", "properties": { "DD_LAT": -16.87, "DD_LONG": 28.16, "SORT_NAME": null, "FULL_NAME": null, "FULL_NAME_": "Sabilobilo", "ZIADMN3_": 7, "ZIADMN3_ID": 6, "ADMIN2": "MASHONALAND WEST", "ADMIN3": "KARIBA", "FEWSID2": "ZI2MASHONALAND WEST", "FEWSID3": "ZI3KARIBA" }, "geometry": { "type": "Point", "coordinates": [ 28.161348599130221, -16.873379332146474 ] } },
{ "type": "Feature", "properties": { "DD_LAT": -18.21667, "DD_LONG": 27.95, "SORT_NAME": "ZIKAMANAS", "FULL_NAME": "Zikamanas", "FULL_NAME_": "Zikamanas", "ZIADMN3_": 15, "ZIADMN3_ID": 14, "ADMIN2": "MATABELELAND NORTH", "ADMIN3": "BINGA", "FEWSID2": "ZI2MATABELELAND NORTH", "FEWSID3": "ZI3BINGA" }, "geometry": { "type": "Point", "coordinates": [ 27.95, -18.21667 ] } },
{ "type": "Feature", "properties": { "DD_LAT": -17.88333, "DD_LONG": 27.16667, "SORT_NAME": "ZAMBEZI", "FULL_NAME": "Zambezi", "FULL_NAME_": "Zambezi", "ZIADMN3_": 15, "ZIADMN3_ID": 14, "ADMIN2": "MATABELELAND NORTH", "ADMIN3": "BINGA", "FEWSID2": "ZI2MATABELELAND NORTH", "FEWSID3": "ZI3BINGA" }, "geometry": { "type": "Point", "coordinates": [ 27.16667, -17.88333 ] } },
{ "type": "Feature", "properties": { "DD_LAT": -17.46667, "DD_LONG": 28.05, "SORT_NAME": "SIABUWA", "FULL_NAME": "Siabuwa", "FULL_NAME_": "Siabuwa", "ZIADMN3_": 15, "ZIADMN3_ID": 14, "ADMIN2": "MATABELELAND NORTH", "ADMIN3": "BINGA", "FEWSID2": "ZI2MATABELELAND NORTH", "FEWSID3": "ZI3BINGA" }, "geometry": { "type": "Point", "coordinates": [ 28.05, -17.46667 ] } },
{ "type": "Feature", "properties": { "DD_LAT": -18.01667, "DD_LONG": 27.13333, "SORT_NAME": "SABA", "FULL_NAME": "Saba", "FULL_NAME_": "Saba", "ZIADMN3_": 15, "ZIADMN3_ID": 14, "ADMIN2": "MATABELELAND NORTH", "ADMIN3": "BINGA", "FEWSID2": "ZI2MATABELELAND NORTH", "FEWSID3": "ZI3BINGA" }, "geometry": { "type": "Point", "coordinates": [ 27.13333, -18.01667 ] } },
{ "type": "Feature", "properties": { "DD_LAT": -18.21667, "DD_LONG": 27.4, "SORT_NAME": "PASHU", "FULL_NAME": "Pashu", "FULL_NAME_": "Pashu", "ZIADMN3_": 15, "ZIADMN3_ID": 14, "ADMIN2": "MATABELELAND NORTH", "ADMIN3": "BINGA", "FEWSID2": "ZI2MATABELELAND NORTH", "FEWSID3": "ZI3BINGA" }, "geometry": { "type": "Point", "coordinates": [ 27.4, -18.21667 ] } },
{ "type": "Feature", "properties": { "DD_LAT": -18.06667, "DD_LONG": 27.83333, "SORT_NAME": "LUSULU", "FULL_NAME": "Lusulu", "FULL_NAME_": "Lusulu", "ZIADMN3_": 15, "ZIADMN3_ID": 14, "ADMIN2": "MATABELELAND NORTH", "ADMIN3": "BINGA", "FEWSID2": "ZI2MATABELELAND NORTH", "FEWSID3": "ZI3BINGA" }, "geometry": { "type": "Point", "coordinates": [ 27.83333, -18.06667 ] } },
{ "type": "Feature", "properties": { "DD_LAT": -18.46667, "DD_LONG": 27.3, "SORT_NAME": "LUBIMBI", "FULL_NAME": "Lubimbi", "FULL_NAME_": "Lubimbi", "ZIADMN3_": 15, "ZIADMN3_ID": 14, "ADMIN2": "MATABELELAND NORTH", "ADMIN3": "BINGA", "FEWSID2": "ZI2MATABELELAND NORTH", "FEWSID3": "ZI3BINGA" }, "geometry": { "type": "Point", "coordinates": [ 27.3, -18.46667 ] } },
{ "type": "Feature", "properties": { "DD_LAT": -18.3, "DD_LONG": 27.98333, "SORT_NAME": "KENYANDAVU", "FULL_NAME": "Kenyandavu", "FULL_NAME_": "Kenyandavu", "ZIADMN3_": 31, "ZIADMN3_ID": 30, "ADMIN2": "MATABELELAND NORTH", "ADMIN3": "LUPANE", "FEWSID2": "ZI2MATABELELAND NORTH", "FEWSID3": "ZI3LUPANE" }, "geometry": { "type": "Point", "coordinates": [ 27.98333, -18.3 ] } },
{ "type": "Feature", "properties": { "DD_LAT": -17.96667, "DD_LONG": 27.5, "SORT_NAME": "KARIYANGWE", "FULL_NAME": "Kariyangwe", "FULL_NAME_": "Kariyangwe", "ZIADMN3_": 15, "ZIADMN3_ID": 14, "ADMIN2": "MATABELELAND NORTH", "ADMIN3": "BINGA", "FEWSID2": "ZI2MATABELELAND NORTH", "FEWSID3": "ZI3BINGA" }, "geometry": { "type": "Point", "coordinates": [ 27.5, -17.96667 ] } },
{ "type": "Feature", "properties": { "DD_LAT": -18.31056, "DD_LONG": 27.11583, "SORT_NAME": "KAMATIVI", "FULL_NAME": "Kamativi", "FULL_NAME_": "Kamativi", "ZIADMN3_": 25, "ZIADMN3_ID": 24, "ADMIN2": "MATABELELAND NORTH", "ADMIN3": "HWANGE", "FEWSID2": "ZI2MATABELELAND NORTH", "FEWSID3": "ZI3HWANGE" }, "geometry": { "type": "Point", "coordinates": [ 27.11583, -18.31056 ] } },
{ "type": "Feature", "properties": { "DD_LAT": -17.61667, "DD_LONG": 27.33333, "SORT_NAME": "BINGA", "FULL_NAME": "Binga", "FULL_NAME_": "Binga", "ZIADMN3_": 15, "ZIADMN3_ID": 14, "ADMIN2": "MATABELELAND NORTH", "ADMIN3": "BINGA", "FEWSID2": "ZI2MATABELELAND NORTH", "FEWSID3": "ZI3BINGA" }, "geometry": { "type": "Point", "coordinates": [ 27.33333, -17.61667 ] } },
{ "type": "Feature", "properties": { "DD_LAT": -17.16, "DD_LONG": 27.8, "SORT_NAME": null, "FULL_NAME": null, "FULL_NAME_": "Sinamwenda", "ZIADMN3_": 15, "ZIADMN3_ID": 14, "ADMIN2": "MATABELELAND NORTH", "ADMIN3": "BINGA", "FEWSID2": "ZI2MATABELELAND NORTH", "FEWSID3": "ZI3BINGA" }, "geometry": { "type": "Point", "coordinates": [ 27.807125029585517, -17.159033607719394 ] } },
{ "type": "Feature", "properties": { "DD_LAT": -17.35, "DD_LONG": 27.62, "SORT_NAME": null, "FULL_NAME": null, "FULL_NAME_": "Chete", "ZIADMN3_": 15, "ZIADMN3_ID": 14, "ADMIN2": "MATABELELAND NORTH", "ADMIN3": "BINGA", "FEWSID2": "ZI2MATABELELAND NORTH", "FEWSID3": "ZI3BINGA" }, "geometry": { "type": "Point", "coordinates": [ 27.61841968032552, -17.345440077818704 ] } },
{ "type": "Feature", "properties": { "DD_LAT": -17.44, "DD_LONG": 27.59, "SORT_NAME": null, "FULL_NAME": null, "FULL_NAME_": "Sengwe", "ZIADMN3_": 15, "ZIADMN3_ID": 14, "ADMIN2": "MATABELELAND NORTH", "ADMIN3": "BINGA", "FEWSID2": "ZI2MATABELELAND NORTH", "FEWSID3": "ZI3BINGA" }, "geometry": { "type": "Point", "coordinates": [ 27.591036341931311, -17.437810390587451 ] } },
{ "type": "Feature", "properties": { "DD_LAT": -17.94, "DD_LONG": 27.09, "SORT_NAME": null, "FULL_NAME": null, "FULL_NAME_": "Mlibizi", "ZIADMN3_": 15, "ZIADMN3_ID": 14, "ADMIN2": "MATABELELAND NORTH", "ADMIN3": "BINGA", "FEWSID2": "ZI2MATABELELAND NORTH", "FEWSID3": "ZI3BINGA" }, "geometry": { "type": "Point", "coordinates": [ 27.097006496301688, -17.936952899055512 ] } },
{ "type": "Feature", "properties": { "DD_LAT": -17.93333, "DD_LONG": 25.83333, "SORT_NAME": "VICTORIAFALLS", "FULL_NAME": "Victoria Falls", "FULL_NAME_": "Victoria Falls", "ZIADMN3_": 25, "ZIADMN3_ID": 24, "ADMIN2": "MATABELELAND NORTH", "ADMIN3": "HWANGE", "FEWSID2": "ZI2MATABELELAND NORTH", "FEWSID3": "ZI3HWANGE" }, "geometry": { "type": "Point", "coordinates": [ 25.83333, -17.93333 ] } },
{ "type": "Feature", "properties": { "DD_LAT": -18.65, "DD_LONG": 27.6, "SORT_NAME": "TSHONGOKWE", "FULL_NAME": "Tshongokwe", "FULL_NAME_": "Tshongokwe", "ZIADMN3_": 31, "ZIADMN3_ID": 30, "ADMIN2": "MATABELELAND NORTH", "ADMIN3": "LUPANE", "FEWSID2": "ZI2MATABELELAND NORTH", "FEWSID3": "ZI3LUPANE" }, "geometry": { "type": "Point", "coordinates": [ 27.6, -18.65 ] } },
{ "type": "Feature", "properties": { "DD_LAT": -19.76667, "DD_LONG": 27.75, "SORT_NAME": "TSHOLOTSHO", "FULL_NAME": "Tsholotsho", "FULL_NAME_": "Tsholotsho", "ZIADMN3_": 40, "ZIADMN3_ID": 39, "ADMIN2": "MATABELELAND NORTH", "ADMIN3": "TSHOLOTSHO", "FEWSID2": "ZI2MATABELELAND NORTH", "FEWSID3": "ZI3TSHOLOTSHO" }, "geometry": { "type": "Point", "coordinates": [ 27.75, -19.76667 ] } },
{ "type": "Feature", "properties": { "DD_LAT": -18.53333, "DD_LONG": 26.6, "SORT_NAME": "TSHONTANDA", "FULL_NAME": "Tshontanda", "FULL_NAME_": "Tshontanda", "ZIADMN3_": 25, "ZIADMN3_ID": 24, "ADMIN2": "MATABELELAND NORTH", "ADMIN3": "HWANGE", "FEWSID2": "ZI2MATABELELAND NORTH", "FEWSID3": "ZI3HWANGE" }, "geometry": { "type": "Point", "coordinates": [ 26.6, -18.53333 ] } },
{ "type": "Feature", "properties": { "DD_LAT": -18.58333, "DD_LONG": 26.31667, "SORT_NAME": "SINAMATELLACAMP", "FULL_NAME": "Sinamatella Camp", "FULL_NAME_": "Sinamatella Camp", "ZIADMN3_": 25, "ZIADMN3_ID": 24, "ADMIN2": "MATABELELAND NORTH", "ADMIN3": "HWANGE", "FEWSID2": "ZI2MATABELELAND NORTH", "FEWSID3": "ZI3HWANGE" }, "geometry": { "type": "Point", "coordinates": [ 26.31667, -18.58333 ] } },
{ "type": "Feature", "properties": { "DD_LAT": -19.68333, "DD_LONG": 27.38333, "SORT_NAME": "SANDAWANA", "FULL_NAME": "Sandawana", "FULL_NAME_": "Sandawana", "ZIADMN3_": 40, "ZIADMN3_ID": 39, "ADMIN2": "MATABELELAND NORTH", "ADMIN3": "TSHOLOTSHO", "FEWSID2": "ZI2MATABELELAND NORTH", "FEWSID3": "ZI3TSHOLOTSHO" }, "geometry": { "type": "Point", "coordinates": [ 27.38333, -19.68333 ] } },
{ "type": "Feature", "properties": { "DD_LAT": -19.55, "DD_LONG": 27.05, "SORT_NAME": "SALANKOMO", "FULL_NAME": "Salankomo", "FULL_NAME_": "Salankomo", "ZIADMN3_": 40, "ZIADMN3_ID": 39, "ADMIN2": "MATABELELAND NORTH", "ADMIN3": "TSHOLOTSHO", "FEWSID2": "ZI2MATABELELAND NORTH", "FEWSID3": "ZI3TSHOLOTSHO" }, "geometry": { "type": "Point", "coordinates": [ 27.05, -19.55 ] } },
{ "type": "Feature", "properties": { "DD_LAT": -19.61667, "DD_LONG": 27.11667, "SORT_NAME": "PUMULA", "FULL_NAME": "Pumula", "FULL_NAME_": "Pumula", "ZIADMN3_": 40, "ZIADMN3_ID": 39, "ADMIN2": "MATABELELAND NORTH", "ADMIN3": "TSHOLOTSHO", "FEWSID2": "ZI2MATABELELAND NORTH", "FEWSID3": "ZI3TSHOLOTSHO" }, "geometry": { "type": "Point", "coordinates": [ 27.11667, -19.61667 ] } },
{ "type": "Feature", "properties": { "DD_LAT": -19.53333, "DD_LONG": 26.91667, "SORT_NAME": "PELENDABA", "FULL_NAME": "Pelendaba", "FULL_NAME_": "Pelendaba", "ZIADMN3_": 40, "ZIADMN3_ID": 39, "ADMIN2": "MATABELELAND NORTH", "ADMIN3": "TSHOLOTSHO", "FEWSID2": "ZI2MATABELELAND NORTH", "FEWSID3": "ZI3TSHOLOTSHO" }, "geometry": { "type": "Point", "coordinates": [ 26.91667, -19.53333 ] } },
{ "type": "Feature", "properties": { "DD_LAT": -18.11667, "DD_LONG": 25.81667, "SORT_NAME": "MUBIYA", "FULL_NAME": "Mubiya", "FULL_NAME_": "Mubiya", "ZIADMN3_": 25, "ZIADMN3_ID": 24, "ADMIN2": "MATABELELAND NORTH", "ADMIN3": "HWANGE", "FEWSID2": "ZI2MATABELELAND NORTH", "FEWSID3": "ZI3HWANGE" }, "geometry": { "type": "Point", "coordinates": [ 25.81667, -18.11667 ] } },
{ "type": "Feature", "properties": { "DD_LAT": -19.21667, "DD_LONG": 27.6, "SORT_NAME": "MPINDO", "FULL_NAME": "Mpindo", "FULL_NAME_": "Mpindo", "ZIADMN3_": 40, "ZIADMN3_ID": 39, "ADMIN2": "MATABELELAND NORTH", "ADMIN3": "TSHOLOTSHO", "FEWSID2": "ZI2MATABELELAND NORTH", "FEWSID3": "ZI3TSHOLOTSHO" }, "geometry": { "type": "Point", "coordinates": [ 27.6, -19.21667 ] } },
{ "type": "Feature", "properties": { "DD_LAT": -19.66667, "DD_LONG": 26.96667, "SORT_NAME": "MPILO", "FULL_NAME": "Mpilo", "FULL_NAME_": "Mpilo", "ZIADMN3_": 40, "ZIADMN3_ID": 39, "ADMIN2": "MATABELELAND NORTH", "ADMIN3": "TSHOLOTSHO", "FEWSID2": "ZI2MATABELELAND NORTH", "FEWSID3": "ZI3TSHOLOTSHO" }, "geometry": { "type": "Point", "coordinates": [ 26.96667, -19.66667 ] } },
{ "type": "Feature", "properties": { "DD_LAT": -19.63333, "DD_LONG": 27.68333, "SORT_NAME": "MKUBAZI", "FULL_NAME": "Mkubazi", "FULL_NAME_": "Mkubazi", "ZIADMN3_": 40, "ZIADMN3_ID": 39, "ADMIN2": "MATABELELAND NORTH", "ADMIN3": "TSHOLOTSHO", "FEWSID2": "ZI2MATABELELAND NORTH", "FEWSID3": "ZI3TSHOLOTSHO" }, "geometry": { "type": "Point", "coordinates": [ 27.68333, -19.63333 ] } },
{ "type": "Feature", "properties": { "DD_LAT": -18.26667, "DD_LONG": 25.93333, "SORT_NAME": "MATETSI", "FULL_NAME": "Matetsi", "FULL_NAME_": "Matetsi", "ZIADMN3_": 25, "ZIADMN3_ID": 24, "ADMIN2": "MATABELELAND NORTH", "ADMIN3": "HWANGE", "FEWSID2": "ZI2MATABELELAND NORTH", "FEWSID3": "ZI3HWANGE" }, "geometry": { "type": "Point", "coordinates": [ 25.93333, -18.26667 ] } },
{ "type": "Feature", "properties": { "DD_LAT": -18.73333, "DD_LONG": 26.95, "SORT_NAME": "MAINCAMP", "FULL_NAME": "Main Camp", "FULL_NAME_": "Main Camp", "ZIADMN3_": 25, "ZIADMN3_ID": 24, "ADMIN2": "MATABELELAND NORTH", "ADMIN3": "HWANGE", "FEWSID2": "ZI2MATABELELAND NORTH", "FEWSID3": "ZI3HWANGE" }, "geometry": { "type": "Point", "coordinates": [ 26.95, -18.73333 ] } },
{ "type": "Feature", "properties": { "DD_LAT": -18.93944, "DD_LONG": 27.75139, "SORT_NAME": "LUPANE", "FULL_NAME": "Lupane", "FULL_NAME_": "Lupane", "ZIADMN3_": 31, "ZIADMN3_ID": 30, "ADMIN2": "MATABELELAND NORTH", "ADMIN3": "LUPANE", "FEWSID2": "ZI2MATABELELAND NORTH", "FEWSID3": "ZI3LUPANE" }, "geometry": { "type": "Point", "coordinates": [ 27.75139, -18.93944 ] } },
{ "type": "Feature", "properties": { "DD_LAT": -19.38333, "DD_LONG": 26.91667, "SORT_NAME": "KORODZIBA", "FULL_NAME": "Korodziba", "FULL_NAME_": "Korodziba", "ZIADMN3_": 40, "ZIADMN3_ID": 39, "ADMIN2": "MATABELELAND NORTH", "ADMIN3": "TSHOLOTSHO", "FEWSID2": "ZI2MATABELELAND NORTH", "FEWSID3": "ZI3TSHOLOTSHO" }, "geometry": { "type": "Point", "coordinates": [ 26.91667, -19.38333 ] } },
{ "type": "Feature", "properties": { "DD_LAT": -19.26667, "DD_LONG": 27.51667, "SORT_NAME": "KAPANE", "FULL_NAME": "Kapane", "FULL_NAME_": "Kapane", "ZIADMN3_": 40, "ZIADMN3_ID": 39, "ADMIN2": "MATABELELAND NORTH", "ADMIN3": "TSHOLOTSHO", "FEWSID2": "ZI2MATABELELAND NORTH", "FEWSID3": "ZI3TSHOLOTSHO" }, "geometry": { "type": "Point", "coordinates": [ 27.51667, -19.26667 ] } },
{ "type": "Feature", "properties": { "DD_LAT": -18.36667, "DD_LONG": 26.48333, "SORT_NAME": "HWANGE", "FULL_NAME": "Hwange", "FULL_NAME_": "Hwange", "ZIADMN3_": 25, "ZIADMN3_ID": 24, "ADMIN2": "MATABELELAND NORTH", "ADMIN3": "HWANGE", "FEWSID2": "ZI2MATABELELAND NORTH", "FEWSID3": "ZI3HWANGE" }, "geometry": { "type": "Point", "coordinates": [ 26.48333, -18.36667 ] } },
{ "type": "Feature", "properties": { "DD_LAT": -19.28444, "DD_LONG": 27.69444, "SORT_NAME": "GWAI", "FULL_NAME": "Gwai", "FULL_NAME_": "Gwai", "ZIADMN3_": 40, "ZIADMN3_ID": 39, "ADMIN2": "MATABELELAND NORTH", "ADMIN3": "TSHOLOTSHO", "FEWSID2": "ZI2MATABELELAND NORTH", "FEWSID3": "ZI3TSHOLOTSHO" }, "geometry": { "type": "Point", "coordinates": [ 27.69444, -19.28444 ] } },
{ "type": "Feature", "properties": { "DD_LAT": -19.4, "DD_LONG": 26.96667, "SORT_NAME": "GIBIXEGU", "FULL_NAME": "Gibixegu", "FULL_NAME_": "Gibixegu", "ZIADMN3_": 40, "ZIADMN3_ID": 39, "ADMIN2": "MATABELELAND NORTH", "ADMIN3": "TSHOLOTSHO", "FEWSID2": "ZI2MATABELELAND NORTH", "FEWSID3": "ZI3TSHOLOTSHO" }, "geometry": { "type": "Point", "coordinates": [ 26.96667, -19.4 ] } },
{ "type": "Feature", "properties": { "DD_LAT": -18.18333, "DD_LONG": 25.86667, "SORT_NAME": "DIBANGOMBIE", "FULL_NAME": "Dibangombie", "FULL_NAME_": "Dibangombie", "ZIADMN3_": 25, "ZIADMN3_ID": 24, "ADMIN2": "MATABELELAND NORTH", "ADMIN3": "HWANGE", "FEWSID2": "ZI2MATABELELAND NORTH", "FEWSID3": "ZI3HWANGE" }, "geometry": { "type": "Point", "coordinates": [ 25.86667, -18.18333 ] } },
{ "type": "Feature", "properties": { "DD_LAT": -18.61667, "DD_LONG": 26.86667, "SORT_NAME": "DETE", "FULL_NAME": "Dete", "FULL_NAME_": "Dete", "ZIADMN3_": 25, "ZIADMN3_ID": 24, "ADMIN2": "MATABELELAND NORTH", "ADMIN3": "HWANGE", "FEWSID2": "ZI2MATABELELAND NORTH", "FEWSID3": "ZI3HWANGE" }, "geometry": { "type": "Point", "coordinates": [ 26.86667, -18.61667 ] } },
{ "type": "Feature", "properties": { "DD_LAT": -19.31667, "DD_LONG": 27.36667, "SORT_NAME": "BONKE", "FULL_NAME": "Bonke", "FULL_NAME_": "Bonke", "ZIADMN3_": 40, "ZIADMN3_ID": 39, "ADMIN2": "MATABELELAND NORTH", "ADMIN3": "TSHOLOTSHO", "FEWSID2": "ZI2MATABELELAND NORTH", "FEWSID3": "ZI3TSHOLOTSHO" }, "geometry": { "type": "Point", "coordinates": [ 27.36667, -19.31667 ] } },
{ "type": "Feature", "properties": { "DD_LAT": -18.1, "DD_LONG": 26.01667, "SORT_NAME": "BEMESDA", "FULL_NAME": "Bemesda", "FULL_NAME_": "Bemesda", "ZIADMN3_": 25, "ZIADMN3_ID": 24, "ADMIN2": "MATABELELAND NORTH", "ADMIN3": "HWANGE", "FEWSID2": "ZI2MATABELELAND NORTH", "FEWSID3": "ZI3HWANGE" }, "geometry": { "type": "Point", "coordinates": [ 26.01667, -18.1 ] } },
{ "type": "Feature", "properties": { "DD_LAT": -19.43333, "DD_LONG": 27.86667, "SORT_NAME": "UMGUSA", "FULL_NAME": "Umgusa", "FULL_NAME_": "Umgusa", "ZIADMN3_": 31, "ZIADMN3_ID": 30, "ADMIN2": "MATABELELAND NORTH", "ADMIN3": "LUPANE", "FEWSID2": "ZI2MATABELELAND NORTH", "FEWSID3": "ZI3LUPANE" }, "geometry": { "type": "Point", "coordinates": [ 27.86667, -19.43333 ] } },
{ "type": "Feature", "properties": { "DD_LAT": -19.0, "DD_LONG": 28.9, "SORT_NAME": "NKAYI", "FULL_NAME": "Nkayi", "FULL_NAME_": "Nkayi", "ZIADMN3_": 35, "ZIADMN3_ID": 34, "ADMIN2": "MATABELELAND NORTH", "ADMIN3": "NKAYI", "FEWSID2": "ZI2MATABELELAND NORTH", "FEWSID3": "ZI3NKAYI" }, "geometry": { "type": "Point", "coordinates": [ 28.9, -19.0 ] } },
{ "type": "Feature", "properties": { "DD_LAT": -19.95, "DD_LONG": 27.33333, "SORT_NAME": "NDOLWANE", "FULL_NAME": "Ndolwane", "FULL_NAME_": "Ndolwane", "ZIADMN3_": 48, "ZIADMN3_ID": 47, "ADMIN2": "MATABELELAND SOUTH", "ADMIN3": "BULILIMAMANGWE", "FEWSID2": "ZI2MATABELELAND SOUTH", "FEWSID3": "ZI3BULILIMAMANGWE" }, "geometry": { "type": "Point", "coordinates": [ 27.33333, -19.95 ] } },
{ "type": "Feature", "properties": { "DD_LAT": -19.91667, "DD_LONG": 27.78333, "SORT_NAME": "MBAMBA", "FULL_NAME": "Mbamba", "FULL_NAME_": "Mbamba", "ZIADMN3_": 40, "ZIADMN3_ID": 39, "ADMIN2": "MATABELELAND NORTH", "ADMIN3": "TSHOLOTSHO", "FEWSID2": "ZI2MATABELELAND NORTH", "FEWSID3": "ZI3TSHOLOTSHO" }, "geometry": { "type": "Point", "coordinates": [ 27.78333, -19.91667 ] } },
{ "type": "Feature", "properties": { "DD_LAT": -18.21667, "DD_LONG": 28.93333, "SORT_NAME": "GOKWE", "FULL_NAME": "Gokwe", "FULL_NAME_": "Gokwe", "ZIADMN3_": 17, "ZIADMN3_ID": 16, "ADMIN2": "MIDLANDS", "ADMIN3": "GOKWE", "FEWSID2": "ZI2MIDLANDS", "FEWSID3": "ZI3GOKWE" }, "geometry": { "type": "Point", "coordinates": [ 28.93333, -18.21667 ] } }
]
}
